{
  "countries": [
    { "name": "United States",    "code": "US", "lat":  37.09,  "lon": -95.71 },
    { "name": "China",            "code": "CN", "lat":  35.86,  "lon": 104.19 },
    { "name": "Russia",           "code": "RU", "lat":  61.52,  "lon": 105.31 },
    { "name": "Germany",          "code": "DE", "lat":  51.16,  "lon":  10.45 },
    { "name": "Brazil",           "code": "BR", "lat": -14.23,  "lon": -51.92 },
    { "name": "United Kingdom",   "code": "GB", "lat":  55.37,  "lon":  -3.43 },
    { "name": "France",           "code": "FR", "lat":  46.22,  "lon":   2.21 },
    { "name": "Japan",            "code": "JP", "lat":  36.20,  "lon": 138.25 },
    { "name": "Australia",        "code": "AU", "lat": -25.27,  "lon": 133.77 },
    { "name": "India",            "code": "IN", "lat":  20.59,  "lon":  78.96 },
    { "name": "South Korea",      "code": "KR", "lat":  35.90,  "lon": 127.76 },
    { "name": "Canada",           "code": "CA", "lat":  56.13,  "lon":-106.34 },
    { "name": "Netherlands",      "code": "NL", "lat":  52.13,  "lon":   5.29 },
    { "name": "Ukraine",          "code": "UA", "lat":  48.37,  "lon":  31.16 },
    { "name": "Iran",             "code": "IR", "lat":  32.42,  "lon":  53.68 },
    { "name": "North Korea",      "code": "KP", "lat":  40.33,  "lon": 127.51 },
    { "name": "Turkey",           "code": "TR", "lat":  38.96,  "lon":  35.24 },
    { "name": "Romania",          "code": "RO", "lat":  45.94,  "lon":  24.96 },
    { "name": "Vietnam",          "code": "VN", "lat":  14.05,  "lon": 108.27 },
    { "name": "Nigeria",          "code": "NG", "lat":   9.08,  "lon":   8.67 },
    { "name": "Singapore",        "code": "SG", "lat":   1.35,  "lon": 103.82 },
    { "name": "Poland",           "code": "PL", "lat":  51.91,  "lon":  19.14 },
    { "name": "Sweden",           "code": "SE", "lat":  60.12,  "lon":  18.64 },
    { "name": "Mexico",           "code": "MX", "lat":  23.63,  "lon":-102.55 },
    { "name": "Argentina",        "code": "AR", "lat": -38.41,  "lon": -63.61 },
    { "name": "Indonesia",        "code": "ID", "lat":  -0.79,  "lon": 113.92 },
    { "name": "Pakistan",         "code": "PK", "lat":  30.37,  "lon":  69.34 },
    { "name": "Saudi Arabia",     "code": "SA", "lat":  23.88,  "lon":  45.07 },
    { "name": "South Africa",     "code": "ZA", "lat": -30.55,  "lon":  22.93 },
    { "name": "Israel",           "code": "IL", "lat":  31.04,  "lon":  34.85 },
    { "name": "Taiwan",           "code": "TW", "lat":  23.69,  "lon": 120.96 },
    { "name": "Czech Republic",   "code": "CZ", "lat":  49.81,  "lon":  15.47 },
    { "name": "Bulgaria",         "code": "BG", "lat":  42.73,  "lon":  25.48 },
    { "name": "Thailand",         "code": "TH", "lat":  15.87,  "lon": 100.99 },
    { "name": "Malaysia",         "code": "MY", "lat":   4.21,  "lon": 108.96 }
  ]
}
